City_ID,City,Lat,Lng,Max Temp,Humidity,Cloudiness,Wind Speed,Country,Date
0,namibe,-15.1961,12.1522,23.15,85,78,4.55,AO,1733430882
1,waitangi,-43.9535,-176.5597,12.12,93,100,6.71,NZ,1733430883
2,grytviken,-54.2811,-36.5092,0.46,76,100,2.62,GS,1733430884
3,al muwayh,22.4333,41.7583,20.63,54,59,1.74,SA,1733430885
4,mount gambier,-37.8333,140.7667,17.42,77,100,0.89,AU,1733430836
5,grand falls-windsor,48.9332,-55.6649,-2.5,73,97,0.89,CA,1733430887
6,ilulissat,69.2167,-51.1,-9.99,62,75,8.23,GL,1733430888
7,constantia,44.1833,28.65,2.38,83,100,6.48,RO,1733430889
8,puerto natales,-51.7236,-72.4875,10.25,43,75,6.17,CL,1733430890
9,hamilton,39.1834,-84.5333,-3.09,54,0,8.23,US,1733430891
10,badger,64.8,-147.5333,-7.02,88,75,2.06,US,1733430892
11,berezovyy,51.6667,135.7,-16.78,94,100,2.18,RU,1733430893
12,mirny,62.5353,113.9611,-15.36,95,100,4.47,RU,1733430894
13,adamstown,-25.066,-130.1015,23.3,73,100,6.54,PN,1733430895
14,floro,61.5996,5.0328,3.98,87,75,10.29,NO,1733430896
15,atafu village,-8.5421,-172.5159,28.48,63,3,5.33,TK,1733430897
16,blackmans bay,-43.0167,147.3167,15.29,85,20,1.11,AU,1733430898
17,diamantina,-18.2494,-43.6003,21.67,67,78,2.31,BR,1733430899
18,margaret river,-33.95,115.0667,10.19,89,6,3.39,AU,1733430900
19,ban tak,17.0432,99.0813,21.71,89,0,0.93,TH,1733430901
20,kavieng,-2.5744,150.7967,27.84,82,100,7.18,PG,1733430902
21,vilyuchinsk,52.9306,158.4028,-4.85,83,52,4.33,RU,1733430904
22,laojunmiao,39.8333,97.7333,-9.19,51,1,2.53,CN,1733430905
23,kamaishi,39.2667,141.8833,2.19,84,68,2.45,JP,1733430906
24,faraskur,31.3298,31.7151,16.84,73,0,3.66,EG,1733430907
25,hawaiian paradise park,19.5933,-154.9731,26.05,80,100,3.6,US,1733430908
26,paita,-5.0892,-81.1144,21.63,75,33,8.3,PE,1733430909
27,ternate,0.8,127.4,26.88,82,98,3.39,ID,1733430910
28,olinda,-8.0089,-34.8553,27.85,69,75,4.12,BR,1733430911
29,lebu,-37.6167,-73.65,14.76,70,17,4.31,CL,1733430912
30,autazes,-3.5797,-59.1306,33.5,46,98,1.92,BR,1733430913
31,laguna,38.421,-121.4238,17.84,64,0,3.09,US,1733430914
32,port-aux-francais,-49.35,70.2167,3.64,96,73,18.47,TF,1733430915
33,georgetown,5.4112,100.3354,26.96,87,20,1.54,MY,1733430650
34,yellowknife,62.456,-114.3525,-14.69,85,75,4.63,CA,1733430917
35,thompson,55.7435,-97.8558,-18.91,84,100,1.03,CA,1733430918
36,fale old settlement,-9.3852,-171.2468,28.51,68,2,4.21,TK,1733430919
37,ushuaia,-54.8,-68.3,6.81,53,75,8.23,AR,1733430920
38,berdigestyakh,62.0989,126.6992,-22.91,97,96,3.42,RU,1733430921
39,albany,42.6001,-73.9662,2.23,67,94,2.68,US,1733430757
40,naracoorte,-36.9579,140.7383,20.51,50,100,4.19,AU,1733430923
41,lae,-6.7221,146.9847,23.67,89,100,0.99,PG,1733430924
42,bredasdorp,-34.5322,20.0403,17.28,68,100,5.69,ZA,1733430925
43,big bend,-26.8167,31.9333,24.1,70,65,0.65,SZ,1733430926
44,yelbarga,15.6333,76.0167,23.49,77,90,3.73,IN,1733430927
45,burutu,5.3509,5.5076,27.21,75,6,2.87,NG,1733430928
46,petropavlovsk-kamchatsky,53.0452,158.6483,-5.67,68,75,3.0,RU,1733430930
47,nar'yan-mar,67.6713,53.087,-3.32,79,100,9.48,RU,1733430931
48,invercargill,-46.4,168.35,12.79,94,100,6.71,NZ,1733430932
49,port lincoln,-34.7333,135.8667,20.23,79,97,5.16,AU,1733430933
50,sirte,31.2089,16.5887,15.22,69,98,10.23,LY,1733430934
51,lompoc,34.6391,-120.4579,23.72,69,40,3.6,US,1733430935
52,ribeira grande,38.5167,-28.7,19.87,88,40,8.94,PT,1733430936
53,tiksi,71.6872,128.8694,-24.87,96,68,2.92,RU,1733430937
54,port elizabeth,-33.918,25.5701,19.06,86,20,2.68,ZA,1733430938
55,tan-tan,28.438,-11.1032,16.73,87,100,0.86,MA,1733430939
56,itoman,26.1247,127.6694,20.01,64,82,3.6,JP,1733430940
57,senekal,-28.3197,27.6208,16.5,58,65,1.21,ZA,1733430941
58,ed damer,17.5928,33.9592,22.81,30,7,7.33,SD,1733430942
59,hammerfest,70.6634,23.6821,-2.75,74,0,3.09,NO,1733430943
60,koungheul,13.9833,-14.8,27.74,12,100,5.63,SN,1733430944
61,fort mcmurray,56.7268,-111.381,-3.23,80,100,2.06,CA,1733430925
62,kourou,5.1552,-52.6478,25.14,84,63,3.42,GF,1733430946
63,tual,-5.6667,132.75,28.82,76,100,5.17,ID,1733430947
64,edinburgh of the seven seas,-37.0676,-12.3116,14.98,82,4,10.71,SH,1733430948
65,college,64.8569,-147.8028,-6.97,78,100,2.06,US,1733430949
66,kasempa,-13.4584,25.8338,22.52,43,88,3.15,ZM,1733430950
67,hermanus,-34.4187,19.2345,18.22,76,100,6.4,ZA,1733430951
68,bilibino,68.0546,166.4372,-22.31,99,9,2.08,RU,1733430953
69,pangkalanbuun,-2.6833,111.6167,22.91,100,100,1.15,ID,1733430954
70,iqaluit,63.7506,-68.5145,-13.15,71,75,1.03,CA,1733430955
71,talnakh,69.4865,88.3972,-17.86,93,100,2.58,RU,1733430956
72,anadyr,64.75,177.4833,-24.72,75,0,5.0,RU,1733430958
73,saldanha,-33.0117,17.9442,19.03,80,100,2.75,ZA,1733430959
74,whitehorse,60.7161,-135.0538,6.43,60,75,7.72,CA,1733430960
75,kapuskasing,49.4169,-82.4331,-7.95,79,40,10.8,CA,1733430961
76,guerrero negro,27.9769,-114.0611,18.9,67,0,7.03,MX,1733430962
77,jamestown,42.097,-79.2353,-3.88,100,100,10.29,US,1733430964
78,punta arenas,-53.15,-70.9167,9.06,53,75,2.06,CL,1733430965
79,kapa'a,22.0752,-159.319,26.38,78,100,6.17,US,1733430966
80,ellsworth,44.5434,-68.4195,1.96,90,100,1.54,US,1733430967
81,shahdad kot,27.8477,67.9055,18.71,27,2,1.87,PK,1733430968
82,bahir dar,11.5936,37.3908,15.61,55,7,1.28,ET,1733430969
83,nyurba,63.2842,118.3319,-18.62,95,100,3.5,RU,1733430970
84,geraldton,-28.7667,114.6,19.23,72,0,6.69,AU,1733430674
85,afaahiti,-17.75,-149.2833,25.8,76,100,7.84,PF,1733430973
86,kuala kangsar,4.7667,100.9333,24.97,99,71,0.67,MY,1733430974
87,longyearbyen,78.2186,15.6401,-7.09,63,0,8.23,SJ,1733430975
88,west island,-12.1568,96.8225,26.99,78,40,7.72,CC,1733430976
89,hithadhoo,-0.6,73.0833,27.5,77,100,4.85,MV,1733430977
90,hobyo,5.3505,48.5268,26.46,75,0,8.51,SO,1733430978
91,dapa,9.7594,126.0531,26.04,85,100,0.72,PH,1733430979
92,zhanaozen,43.3,52.8,0.96,78,9,3.38,KZ,1733430980
93,illizi,26.4833,8.4667,12.27,57,1,3.27,DZ,1733430981
94,stanley,54.868,-1.6985,7.01,84,20,7.2,GB,1733430982
95,montmagny,48.9734,2.3469,11.27,96,100,7.72,FR,1733430983
96,uturoa,-16.7333,-151.4333,27.45,76,100,7.74,PF,1733430984
97,kailua-kona,19.6406,-155.9956,28.64,63,0,3.09,US,1733430985
98,bethel,41.3712,-73.414,2.51,66,100,6.17,US,1733430986
99,kapit,2.0167,112.9333,22.39,99,100,0.8,MY,1733430987
100,hameenkyro,61.6391,23.1953,-1.85,94,90,4.27,FI,1733430988
101,olonkinbyen,70.9221,-8.7187,-1.99,99,100,9.05,SJ,1733430989
102,virginia beach,36.8529,-75.978,11.02,20,20,9.26,US,1733430990
103,katsuura,35.1333,140.3,10.71,57,28,0.84,JP,1733430992
104,kingston,17.997,-76.7936,28.53,84,75,5.66,JM,1733430994
105,utrik,11.2278,169.8474,27.68,83,79,11.11,MH,1733430995
106,fallon,39.4735,-118.7774,8.39,49,20,2.06,US,1733430996
107,tsiombe,-25.3,45.4833,24.29,91,0,0.56,MG,1733430997
108,pimenta bueno,-11.6725,-61.1936,29.65,65,98,2.59,BR,1733430998
109,isafjordur,66.0755,-23.124,-3.48,94,100,4.79,IS,1733430999
110,ad dilam,23.9915,47.1627,19.91,43,0,4.28,SA,1733431000
111,ust-nera,64.5667,143.2,-25.61,99,90,1.09,RU,1733431001
112,kodiak,57.79,-152.4072,-1.27,100,100,0.0,US,1733431002
113,qaqortoq,60.7167,-46.0333,-15.4,80,79,3.14,GL,1733431003
114,broken hill,-31.95,141.4333,31.29,37,58,6.98,AU,1733431004
115,karliova,39.2983,41.0142,-8.29,94,99,0.56,TR,1733431005
116,vale de cambra,40.8497,-8.3939,13.62,92,100,0.78,PT,1733431006
117,port alfred,-33.5906,26.891,18.99,81,65,4.57,ZA,1733431007
118,ma'rib,15.4591,45.3253,17.6,30,0,1.09,YE,1733431008
119,kuta,-8.7233,115.1723,26.97,89,40,1.03,ID,1733431009
120,terrace,54.5163,-128.6035,6.95,100,100,1.03,CA,1733431010
121,vorgashor,67.5833,63.95,-3.29,95,100,9.18,RU,1733431011
122,saipan,15.1355,145.701,28.39,85,75,4.63,MP,1733431012
123,ilhabela,-23.7781,-45.3581,23.15,95,93,3.73,BR,1733431013
124,icano,-28.9193,-65.3282,33.85,35,35,6.97,AR,1733431014
125,mao,39.8885,4.2658,10.31,87,0,2.57,ES,1733431015
126,minas de marcona,-15.2119,-75.1103,18.33,69,39,8.69,PE,1733431016
127,st. john's,47.5649,-52.7093,1.75,74,75,3.09,CA,1733430919
128,palmer,42.1584,-72.3287,3.06,68,75,5.14,US,1733431019
129,paphos,34.7667,32.4167,13.88,82,0,2.57,CY,1733431020
130,alice springs,-23.7,133.8833,23.75,78,18,3.09,AU,1733431021
131,lihue,21.9789,-159.3672,25.97,76,100,6.17,US,1733431022
132,avarua,-21.2078,-159.775,26.03,73,40,5.14,CK,1733431023
133,kununurra,-15.7667,128.7333,24.99,94,100,1.03,AU,1733431025
134,green river,41.5286,-109.4662,1.1,60,0,0.45,US,1733431026
135,mendi,-6.1761,143.6513,13.44,96,100,1.48,PG,1733431027
136,karukh,34.4811,62.5863,4.13,48,0,2.3,AF,1733431028
137,portland,45.5234,-122.6762,8.95,65,20,3.13,US,1733430379
138,ketchikan,55.3422,-131.6461,8.76,93,100,5.14,US,1733431030
139,bandar-e lengeh,26.5579,54.8807,21.99,56,0,0.73,IR,1733431031
140,alofi,-19.0595,-169.9187,26.94,78,75,6.69,NU,1733431032
141,nagato,34.3833,131.2,11.19,57,92,10.02,JP,1733431033
142,hadibu,12.65,54.0333,25.36,72,6,7.41,YE,1733431034
143,papatowai,-46.5619,169.4708,12.68,83,83,4.55,NZ,1733431035
144,buala,-8.145,159.5921,28.09,82,100,4.13,SB,1733431036
145,chita,52.0333,113.55,-35.06,75,20,1.0,RU,1733431037
146,malax,62.9423,21.5731,-1.68,93,100,4.63,FI,1733431038
147,spring creek,40.7266,-115.5859,6.01,34,6,0.83,US,1733431040
148,lady frere,-31.7031,27.2329,15.93,81,86,1.75,ZA,1733431041
149,severo-yeniseyskiy,60.3725,93.0408,-10.56,91,99,3.65,RU,1733431042
150,hilvan,37.5869,38.9551,6.49,100,75,4.12,TR,1733431043
151,jiagedaqi,50.4167,124.1167,-25.54,98,24,1.97,CN,1733431044
152,kolpashevo,58.3131,82.9089,-6.97,93,100,4.83,RU,1733431045
153,sola,-13.8833,167.55,26.73,79,100,5.14,VU,1733431046
154,angaur state,6.906,134.13,28.85,77,92,4.76,PW,1733431047
155,mogocha,53.7333,119.7667,-22.3,94,73,1.85,RU,1733431048
156,malango,-2.9627,119.9001,20.07,96,100,0.95,ID,1733431049
157,matoury,4.8483,-52.3317,27.98,74,75,6.69,GF,1733431050
158,gadzhiyevo,69.2551,33.3362,-3.71,85,93,9.26,RU,1733431052
159,fort st. john,56.2499,-120.8529,5.94,75,75,7.72,CA,1733431053
160,salima,-13.7804,34.4587,25.75,74,97,1.29,MW,1733431054
161,rongelap,11.1635,166.8941,27.91,82,44,11.23,MH,1733431055
162,doctor alberto oviedo mota,32.2275,-115.1697,26.57,12,31,3.8,MX,1733431056
163,sao joao da barra,-21.6403,-41.0511,28.05,85,79,4.19,BR,1733431057
164,svetlyy,54.675,20.1347,3.13,82,89,5.91,RU,1733431058
165,turpan,42.9333,89.1667,-0.97,78,0,0.33,CN,1733431060
166,mount isa,-20.7333,139.5,22.87,100,7,0.0,AU,1733431061
167,ghadamis,30.1337,9.5007,12.03,45,19,5.46,LY,1733431062
168,algona,43.07,-94.233,-7.72,62,0,3.09,US,1733431063
169,yuzhno-kurilsk,44.0306,145.8556,-1.01,60,100,3.29,RU,1733431064
170,horta,38.5333,-28.6333,19.45,89,40,9.83,PT,1733431065
171,jutai,-5.1833,-68.9,26.55,82,100,1.22,BR,1733431066
172,brookings,44.3114,-96.7984,-7.68,70,100,3.09,US,1733431067
173,maragogi,-9.0122,-35.2225,25.62,77,74,3.93,BR,1733431068
174,al 'aziziyah,32.9058,45.0616,14.83,28,32,4.11,IQ,1733431069
175,trelleborg,55.3751,13.1569,4.41,79,100,11.01,SE,1733431070
176,mbuji-mayi,-6.15,23.6,20.01,93,98,0.7,CD,1733431071
177,howard springs,-12.497,131.047,25.46,89,100,2.26,AU,1733431072
178,el calafate,-50.3408,-72.2768,9.35,49,46,1.91,AR,1733431073
179,dunedin,-45.8742,170.5036,13.22,81,37,3.58,NZ,1733431074
180,tsengel,49.4783,100.8894,-11.97,78,61,2.78,MN,1733431075
181,at taj,24.2049,23.2857,12.78,36,48,1.2,LY,1733431076
182,gilgit,35.9221,74.3087,-3.04,45,0,1.92,PK,1733431077
183,santa ana,33.7456,-117.8678,19.82,87,100,2.06,US,1733431078
184,hola,51.5377,23.1902,0.62,97,100,2.7,PL,1733431079
185,rotonda west,26.8837,-82.2901,23.32,53,0,2.57,US,1733431080
186,dryden,49.7833,-92.7503,-10.84,79,40,5.14,CA,1733431081
187,usogorsk,63.4106,48.6872,-11.51,93,18,3.15,RU,1733431082
188,kargasok,59.0556,80.8572,-5.76,90,100,5.2,RU,1733431084
189,porto franco,-6.3383,-47.3992,28.15,61,100,0.9,BR,1733431085
190,tura,25.5198,90.2201,14.71,74,0,1.2,IN,1733431086
191,homer,59.6425,-151.5483,5.02,87,20,1.54,US,1733431087
192,tangalle,6.024,80.7911,24.77,85,98,0.69,LK,1733431088
193,enewetak,11.3474,162.3373,28.06,81,8,11.08,MH,1733431089
194,mahina,-17.5065,-149.489,28.87,61,75,6.69,PF,1733431090
195,vilcun,-38.65,-72.2333,12.75,92,89,1.37,CL,1733431091
196,palikir - national government center,6.9248,158.1611,28.47,84,100,7.2,FM,1733431093
197,kupang,-10.1667,123.5833,26.32,100,75,1.03,ID,1733431094
198,taltal,-25.4,-70.4833,19.34,67,99,3.52,CL,1733431095
199,douentza,14.9951,-2.9517,23.74,14,24,2.52,ML,1733431096
200,port mathurin,-19.6833,63.4167,24.25,80,88,8.21,MU,1733431097
201,nahiyat ash shinafiyah,31.5874,44.6602,15.22,25,0,3.3,IQ,1733431098
202,revda,56.801,59.9303,-8.65,89,95,4.09,RU,1733431099
203,new norfolk,-42.7826,147.0587,15.95,54,27,1.09,AU,1733431100
204,tolanaro,-25.0319,46.9987,26.04,83,0,9.26,MG,1733431101
205,tchintabaraden,15.8969,5.7985,21.6,14,100,3.19,NE,1733431102
206,walvis bay,-22.9575,14.5053,16.53,88,5,2.57,NA,1733431103
207,shitanjing,39.2342,106.3439,-4.16,60,4,6.48,CN,1733431105
208,anshun,26.25,105.9333,5.5,89,100,3.72,CN,1733431106
209,khovd,48.0056,91.6419,-11.87,68,4,1.84,MN,1733431107
210,polyarnyy,69.1989,33.4478,-3.68,85,90,8.97,RU,1733431108
211,sinabang,2.4803,96.3801,25.18,87,91,2.6,ID,1733431109
212,ankazoabo,-22.2833,44.5167,23.59,75,21,0.63,MG,1733431110
213,klyuchi,52.2667,79.1667,-13.29,94,13,2.91,RU,1733431111
214,turochak,52.2576,87.1224,-13.11,98,77,0.85,RU,1733431112
215,port saint john's,-31.6229,29.5448,21.37,86,100,3.72,ZA,1733431113
216,kirensk,57.7853,108.1119,-22.65,99,100,1.69,RU,1733431114
217,tangshan,39.6333,118.1833,-0.62,33,22,1.77,CN,1733431115
218,jayapura,-2.5333,140.7,24.66,92,94,1.79,ID,1733431116
219,palafrugell,41.9174,3.1631,8.21,81,94,1.1,ES,1733431117
220,harper,4.375,-7.7169,26.19,85,62,4.66,LR,1733431118
221,rio gallegos,-51.6226,-69.2181,8.03,46,0,3.6,AR,1733431119
222,kristiansund,63.1115,7.732,6.36,45,0,5.14,NO,1733431120
223,erdenet,49.0333,104.0833,-10.35,68,100,1.92,MN,1733431121
224,vadso,70.0744,29.7487,-5.91,73,40,10.29,NO,1733431122
225,tralee,52.2704,-9.7026,8.49,72,31,7.17,IE,1733431123
226,porbandar,21.6422,69.6093,24.3,41,82,3.93,IN,1733431124
227,zeya,53.75,127.2667,-16.08,82,100,2.9,RU,1733431125
228,santa monica,34.0195,-118.4912,22.5,71,0,2.24,US,1733430980
229,verkhnevilyuysk,63.4453,120.3167,-21.91,96,64,2.8,RU,1733431128
230,mangrol,21.1167,70.1167,24.16,46,100,4.83,IN,1733431129
231,fada,7.25,4.0667,22.65,60,58,1.17,NG,1733431130
232,tasqala,51.1167,50.3167,-5.69,82,12,4.0,KZ,1733431131
233,northam,51.0333,-4.2167,9.82,77,38,12.66,GB,1733431132
234,pacocha,-17.5833,-71.3333,22.08,56,20,4.12,PE,1733431133
235,east london,-33.0153,27.9116,20.3,73,100,3.63,ZA,1733431134
236,darhan,49.4867,105.9228,-10.77,96,100,1.54,MN,1733431135
237,beau vallon,-20.4189,57.6953,24.13,73,20,1.54,MU,1733431136
238,exmouth,50.6172,-3.4023,9.92,88,64,11.95,GB,1733431137
239,aur,8.1499,171.1687,28.28,83,57,9.95,MH,1733431138
240,wagar,16.1525,36.2032,23.59,76,1,6.81,SD,1733431139
241,tayoltita,24.0833,-105.9333,31.22,20,15,3.09,MX,1733431140
242,essaouira,31.5125,-9.77,18.72,45,83,2.06,MA,1733431141
243,alaghsas,17.0187,8.0168,21.63,14,97,3.59,NE,1733431142
244,santa elena de uairen,4.6167,-61.1333,23.31,67,89,1.78,VE,1733431143
245,gualeguay,-33.1416,-59.3097,30.98,30,100,4.97,AR,1733431144
246,villa del totoral,-30.8167,-63.7167,32.4,40,38,6.89,AR,1733431145
247,anaconda,46.1285,-112.9423,9.18,44,0,2.32,US,1733431146
248,khorugh,37.4897,71.553,-23.39,62,0,0.47,TJ,1733431147
249,vernon,50.2581,-119.2691,1.63,68,12,2.68,CA,1733431148
250,al kharijah,25.4514,30.5464,14.49,47,67,2.87,EG,1733431149
251,boende,-0.2167,20.8667,23.15,83,95,1.41,CD,1733431150
252,al mijlad,11.0333,27.7333,22.57,20,11,5.63,SD,1733431151
253,praia da vitoria,38.7333,-27.0667,18.14,88,40,7.18,PT,1733431153
254,amga,60.8953,131.9608,-22.83,96,100,2.54,RU,1733431154
255,el bauga,18.262,33.9081,20.78,27,35,5.71,SD,1733431155
256,bikenibeu village,1.3673,173.1241,29.98,74,75,7.2,KI,1733431156
257,kiunga,-6.1219,141.2906,24.02,100,100,0.67,PG,1733431157
258,udachny,66.4167,112.4,-12.61,92,100,4.78,RU,1733431158
259,luderitz,-26.6481,15.1594,15.94,90,13,4.69,NA,1733431159
260,chicomuselo,15.7667,-92.2667,27.46,52,8,0.48,MX,1733431160
261,biltine,14.5333,20.9167,23.37,19,17,3.42,TD,1733431161
262,whitby,54.4877,-0.615,8.82,85,94,4.02,GB,1733431162
263,fortuna,40.5982,-124.1573,19.96,57,0,0.0,US,1733431163
264,haiku-pauwela,20.9219,-156.3051,27.36,67,40,3.13,US,1733431164
265,susuman,62.7833,148.1667,-26.68,100,100,0.35,RU,1733431165
266,antofagasta,-23.65,-70.4,17.6,80,98,5.35,CL,1733431166
267,kruisfontein,-34.0033,24.7314,16.11,82,62,4.26,ZA,1733431167
268,remire-montjoly,4.9167,-52.2667,28.02,74,75,6.69,GF,1733431168
269,ixtapa,20.7,-105.2,26.57,65,0,3.09,MX,1733431169
270,buritizeiro,-17.3511,-44.9622,27.53,51,64,3.86,BR,1733431171
271,san lorenzo,-25.3333,-57.5333,32.19,62,100,0.89,PY,1733431172
272,piton saint-leu,-21.2196,55.3151,22.06,53,0,3.09,RE,1733431173
273,keflavik,64.0049,-22.5624,0.24,93,75,3.09,IS,1733431175
274,neyriz,29.1988,54.3278,9.0,49,0,0.94,IR,1733431176
275,yishui,35.7847,118.6281,1.89,56,60,0.77,CN,1733431177
276,selfoss,63.9331,-20.9971,1.14,91,100,2.96,IS,1733431178
277,al hazm,16.1641,44.7769,18.54,27,8,0.23,YE,1733431179
278,cholpon-ata,42.6494,77.0823,-1.06,53,20,2.24,KG,1733431181
279,wailua homesteads,22.0669,-159.378,25.63,78,100,6.17,US,1733431182
280,miringa,10.7312,12.1463,21.88,33,17,2.52,NG,1733431183
281,chopinzinho,-25.8558,-52.5233,24.85,75,100,0.5,BR,1733431184
282,road town,18.4167,-64.6167,29.02,70,20,4.63,VG,1733431185
283,atamanovka,51.93,113.63,-33.76,99,36,1.35,RU,1733431187
284,sona,45.4388,10.8255,2.51,81,0,2.06,IT,1733431189
285,diapaga,12.0708,1.7889,22.51,17,11,2.96,BF,1733431190
286,baise city,23.8997,106.6133,16.8,87,98,0.68,CN,1733431191
287,cidreira,-30.1811,-50.2056,22.05,81,0,5.71,BR,1733431192
288,zambezi,-13.5432,23.1047,22.35,43,78,3.58,ZM,1733431193
289,egilsstadir,65.2653,-14.3948,0.95,75,100,4.12,IS,1733431194
290,baotou,40.6522,109.8222,-4.24,64,56,3.42,CN,1733431195
291,eyl,7.9803,49.8164,25.2,75,5,8.32,SO,1733431196
292,tindouf,27.6711,-8.1474,17.25,27,0,1.03,DZ,1733431197
293,gazipasa,36.2694,32.3179,12.05,87,0,3.09,TR,1733431198
294,changji,44.0167,87.3167,-3.56,93,75,1.0,CN,1733431199
295,weno,7.4515,151.8468,24.97,94,100,3.6,FM,1733431411
296,sechura,-5.5569,-80.8222,25.97,58,92,7.9,PE,1733431412
297,nuuk,64.1835,-51.7216,-7.66,73,75,3.09,GL,1733431413
298,balsta,59.5671,17.5278,-0.32,85,48,3.42,SE,1733431414
299,richards bay,-28.783,32.0377,23.61,87,96,6.24,ZA,1733431415
300,shingu,33.7333,135.9833,6.31,83,8,2.69,JP,1733431416
301,kavaratti,10.5669,72.642,27.54,77,4,4.23,IN,1733431417
302,aleksandrov gay,50.147,48.5704,-3.66,97,63,3.16,RU,1733431418
303,westport,41.1415,-73.3579,3.51,62,95,5.81,US,1733431419
304,varzea grande,-15.6467,-56.1325,29.93,62,75,4.63,BR,1733431420
305,puerto ayora,-0.7393,-90.3518,23.64,91,65,3.58,EC,1733431421
306,nova vicosa,-17.8919,-39.3719,25.15,76,22,4.51,BR,1733431422
307,an nuhud,12.7,28.4333,19.18,22,4,5.39,SD,1733431423
308,puerto baquerizo moreno,-0.9,-89.6,26.55,74,75,6.17,EC,1733431424
309,aransas pass,27.9095,-97.15,19.01,88,100,5.66,US,1733431426
310,sparti,37.0733,22.4297,12.19,98,100,0.86,GR,1733431427
311,dudinka,69.4058,86.1778,-23.96,100,100,2.07,RU,1733431428
312,la passe,45.5549,-0.8967,14.33,95,100,10.21,FR,1733431430
313,east york,39.9737,-76.6864,0.77,53,75,3.13,US,1733431431
314,puerto santa,-8.9906,-78.6456,20.33,80,93,5.02,PE,1733431433
315,smithers,54.7804,-127.1743,3.18,100,75,1.54,CA,1733431322
316,pangai,-19.8,-174.35,27.06,83,75,3.6,TO,1733431435
317,phek,25.6667,94.5,6.33,99,21,0.71,IN,1733431436
318,pruszcz gdanski,54.2622,18.6363,4.98,84,100,3.6,PL,1733431438
319,boca do acre,-8.7522,-67.3978,25.52,85,100,1.41,BR,1733431439
320,ola,59.5833,151.2833,-5.49,77,100,6.94,RU,1733431440
321,fort bragg,35.139,-79.006,16.91,28,40,5.14,US,1733431441
322,inverell,-29.7833,151.1167,22.87,90,17,0.89,AU,1733431442
323,al jawf,29.5,38.75,12.62,46,55,5.53,SA,1733431443
324,acarau,-2.8856,-40.12,26.89,75,99,6.58,BR,1733431444
325,wellington,-41.2866,174.7756,16.81,77,75,5.66,NZ,1733431445
326,kitimat,54.0524,-128.6534,5.94,31,100,1.34,CA,1733431446
327,al bawiti,28.3492,28.8659,13.99,52,93,2.03,EG,1733431448
328,san sebastian de la gomera,28.0916,-17.1133,21.2,77,0,0.51,ES,1733431449
329,morehead city,34.7229,-76.726,17.02,42,100,6.69,US,1733431450
330,cabo san lucas,22.8909,-109.9124,28.2,38,75,4.12,MX,1733431252
331,choibalsan,48.0667,114.5,-15.38,74,45,3.5,MN,1733431452
332,pacasmayo,-7.4006,-79.5714,21.33,75,71,6.97,PE,1733431454
333,pitimbu,-7.4706,-34.8086,25.81,73,6,3.57,BR,1733431456
334,la ronge,55.1001,-105.2842,-7.86,93,100,3.09,CA,1733431457
335,chagoda,59.164,35.3285,-5.63,86,100,3.5,RU,1733431459
336,quadrivio,45.0297,9.2223,2.99,96,100,0.63,IT,1733431460
337,nikol'sk,53.7189,46.0712,-9.97,96,30,2.2,RU,1733431461
338,ust'-ordynskiy,52.805,104.7508,-15.38,100,89,1.78,RU,1733431462
339,yanta,36.2411,115.6672,3.1,44,0,2.07,CN,1733431463
340,nadym,65.5333,72.5167,-16.11,92,22,5.36,RU,1733431464
341,aasiaat,68.7098,-52.8699,-10.4,84,100,2.9,GL,1733431465
342,issia,6.4922,-6.5856,22.88,42,12,1.67,CI,1733431466
343,ghanzi,-21.5667,21.7833,26.34,29,6,3.11,BW,1733431467
344,xichang,27.8964,102.2634,8.19,84,75,0.24,CN,1733431468
345,kulunda,52.566,78.9385,-13.08,94,13,3.17,RU,1733431469
346,arraial do cabo,-22.9661,-42.0278,22.98,88,100,2.57,BR,1733431470
347,toccoa,34.5773,-83.3324,10.8,26,0,4.12,US,1733431471
348,hasaki,35.7333,140.8333,11.22,48,0,2.79,JP,1733431472
349,banes,20.9625,-75.7186,23.88,80,100,4.35,CU,1733431473
350,jieshi,22.8134,115.8257,18.0,86,0,4.87,CN,1733431474
351,francisco sa,-16.4758,-43.4883,23.64,60,60,2.62,BR,1733431475
352,carnarvon,-24.8667,113.6333,20.95,71,4,10.42,AU,1733431476
353,monze,-16.2833,27.4833,25.41,26,6,1.17,ZM,1733431477
354,dalai,45.5,124.3,-14.03,95,54,3.05,CN,1733431479
355,nagykanizsa,46.4535,16.991,-3.23,81,23,1.24,HU,1733431480
356,tazovsky,67.4667,78.7,-17.91,97,100,3.68,RU,1733431481
357,irbit,57.6705,63.071,-5.18,72,91,5.17,RU,1733431482
358,tarawa,1.419,172.984,30.05,74,75,7.2,KI,1733431483
359,al wajh,26.2455,36.4525,18.97,48,0,1.54,SA,1733431484
360,altai,46.3722,96.2583,-14.67,88,6,1.46,MN,1733431485
361,san patricio,28.017,-97.5169,18.97,75,100,6.33,US,1733431486
362,guaranda,-1.6,-79.0,13.43,99,100,2.55,EC,1733431487
363,coquimbo,-29.9533,-71.3436,19.85,56,0,7.2,CL,1733431488
364,beyneu,45.3167,55.2,0.03,77,6,1.0,KZ,1733431489
365,kalmunai,7.4167,81.8167,25.19,88,100,2.8,LK,1733431490
366,khorinsk,52.1657,109.7726,-23.76,99,44,0.2,RU,1733431491
367,urangan,-25.3,152.9,24.78,80,11,5.02,AU,1733431492
368,cestos city,5.46,-9.5828,26.89,81,59,3.72,LR,1733431493
369,touros,-5.1989,-35.4608,26.16,69,100,5.54,BR,1733431494
370,karratha,-20.7377,116.8463,27.42,59,29,3.05,AU,1733431495
371,ataq,14.5377,46.8319,18.39,26,0,1.13,YE,1733431496
372,oriximina,-1.7656,-55.8661,31.71,54,89,2.96,BR,1733431497
373,suez,29.9737,32.5263,15.08,82,98,3.71,EG,1733431498
374,wulingyuan,29.3494,110.5441,6.23,81,99,0.46,CN,1733431500
375,shortandy,51.7006,70.9994,-5.53,96,100,3.89,KZ,1733431501
376,ban nong wua so,17.2675,103.2247,20.25,68,4,2.32,TH,1733431502
377,aras-asan,8.8908,126.3033,24.81,88,98,1.13,PH,1733431503
378,flying fish cove,-10.4217,105.6791,24.82,94,100,4.63,CX,1733431504
379,levuka,50.1834,-105.4011,-2.15,80,100,5.66,CA,1733431505
380,diego martin,10.7005,-61.5342,27.88,73,46,4.38,TT,1733431506
381,howrah,22.5892,88.3103,20.0,73,0,1.54,IN,1733431507
382,del rio,29.3627,-100.8968,19.06,60,100,3.6,US,1733431178
383,aranda de duero,41.6704,-3.6892,8.02,70,93,2.39,ES,1733431509
384,nakasongola,1.3089,32.4564,18.66,71,81,1.08,UG,1733431510
385,inirida,3.8653,-67.9239,25.31,93,100,1.32,CO,1733431511
386,mitsamiouli,-11.3847,43.2844,27.23,79,82,3.34,KM,1733431512
387,greymouth,-42.4667,171.2,15.68,82,85,1.98,NZ,1733431395
388,lata,40.1629,-8.3327,12.25,94,91,1.24,PT,1733431514
389,pokachi,61.7198,75.3683,-9.65,95,91,5.28,RU,1733431516
390,kalinagar,28.6167,80.1,11.94,50,1,2.84,IN,1733431517
391,camborne,50.2131,-5.2973,10.83,76,75,10.29,GB,1733431518
392,jaffna,9.6685,80.0074,25.97,85,100,3.38,LK,1733431519
393,lorengau,-2.0226,147.2712,28.49,80,100,5.11,PG,1733431521
394,rosetta,31.4044,30.4164,16.84,72,1,4.0,EG,1733431522
395,yamazakicho-nakabirose,35.0,134.55,2.46,82,1,1.62,JP,1733431523
396,peterhead,57.5058,-1.7981,6.59,89,100,11.59,GB,1733431524
397,bangassou,4.7413,22.8184,21.62,47,12,0.74,CF,1733431525
398,dwarka,22.2394,68.9678,24.67,49,91,4.58,IN,1733431526
399,dondo,-19.6094,34.7431,26.73,95,4,2.28,MZ,1733431527
400,nova sintra,14.8667,-24.7167,26.43,68,21,4.13,CV,1733431528
401,arinos,-15.9169,-46.1056,26.56,64,43,2.33,BR,1733431529
402,iskateley,67.6803,53.1512,-3.29,79,100,9.44,RU,1733431530
403,thulamahashi,-24.7246,31.1994,26.27,44,66,1.26,ZA,1733431531
404,nurota,40.5614,65.6886,1.22,82,0,0.29,UZ,1733431532
405,kovalam,8.3667,76.9967,26.05,94,40,1.03,IN,1733431533
406,troitsko-pechorsk,62.7084,56.1964,-9.67,92,18,3.16,RU,1733431534
407,centenario,-38.8043,-68.14,23.86,23,75,5.66,AR,1733431535
408,presidencia de la plaza,-27.0015,-59.8424,33.59,45,51,5.52,AR,1733431536
409,cockburn town,21.4612,-71.1419,25.86,80,98,9.32,TC,1733431537
410,sandnessjoen,66.0217,12.6316,2.06,51,0,5.14,NO,1733431538
411,misratah,32.3754,15.0925,16.1,72,100,9.48,LY,1733431539
412,kasumkent,41.6773,48.146,2.93,80,49,0.73,RU,1733431540
413,summerlin south,36.1027,-115.3811,18.24,25,12,2.29,US,1733431270
414,general conesa,-40.1,-64.4333,23.61,35,55,7.41,AR,1733431542
415,pisco,-13.7,-76.2167,23.03,68,0,9.77,PE,1733431543
416,cartagena,10.3997,-75.5144,31.79,62,20,7.2,CO,1733431545
417,dzhambeyty,50.2536,52.595,-4.33,93,23,3.03,KZ,1733431546
418,greenville,35.6127,-77.3663,14.01,38,40,2.06,US,1733431547
419,berber,18.0216,33.983,21.7,31,10,6.13,SD,1733431548
420,nikolayevsk-on-amure,53.1406,140.73,-21.8,100,100,0.42,RU,1733431549
421,suomussalmi,64.8869,28.9078,-5.95,85,75,4.27,FI,1733431550
422,crane,31.3974,-102.3501,15.82,38,36,8.65,US,1733431551
423,nayoro,44.3506,142.4578,-5.52,96,100,2.01,JP,1733431552
424,alakurtti,66.9672,30.3491,-8.78,96,100,1.9,RU,1733431553
425,dhidhdhoo,6.8833,73.1,26.81,68,100,0.76,MV,1733431554
426,sitka,57.0531,-135.33,8.94,87,75,0.0,US,1733431555
427,gaspe,48.8334,-64.4819,0.12,93,100,13.38,CA,1733431556
428,kuraymah,18.55,31.85,18.6,26,40,4.48,SD,1733431557
429,holmsund,63.706,20.3641,-0.03,92,100,6.71,SE,1733431558
430,dundee,56.5,-2.9667,5.84,82,20,3.6,GB,1733431559
431,quellon,-43.1167,-73.6167,10.51,90,100,5.8,CL,1733431560
432,uliastay,47.7417,96.8444,-16.39,80,15,2.14,MN,1733431561
433,sinanpasa,38.7444,30.2428,4.58,85,21,1.55,TR,1733431562
434,hun,29.1268,15.9477,11.23,76,97,7.15,LY,1733431563
435,puerto barrios,15.7167,-88.6,25.08,69,100,2.06,GT,1733431564
436,gorontalo,0.5412,123.0595,23.38,95,99,1.15,ID,1733431565
437,outjo,-20.1167,16.15,22.11,37,5,5.73,NA,1733431567
438,conceicao da barra,-18.5933,-39.7322,24.86,78,50,3.95,BR,1733431569
439,roma,43.2128,-75.4557,1.08,73,100,8.23,US,1733431570
440,san antonio de pale,-1.4014,5.6325,26.57,79,32,4.5,GQ,1733431571
441,gornyye klyuchi,45.25,133.5,-9.98,94,100,4.22,RU,1733431572
442,namie,37.4833,141.0,4.99,77,14,2.59,JP,1733431573
443,sinan,34.8262,126.1086,8.77,53,85,10.27,KR,1733431574
444,san clemente del tuyu,-36.3569,-56.7235,22.88,63,58,4.72,AR,1733431575
445,bure,10.7,37.0667,13.02,63,2,2.28,ET,1733431576
446,igarka,67.4667,86.5833,-10.87,95,100,6.08,RU,1733431577
447,alo,6.5486,4.2686,26.1,76,9,2.37,NG,1733431578
448,khashuri,41.9941,43.5999,-0.38,79,21,1.58,GE,1733431579
449,manfalut,27.3104,30.97,16.14,59,100,2.52,EG,1733431580
450,faya-largeau,17.9257,19.1043,19.85,21,74,4.58,TD,1733431581
451,airuk,7.2772,168.8203,28.01,84,55,10.4,MH,1733431582
452,lerwick,60.1545,-1.1494,7.68,84,96,7.46,GB,1733431583
453,mar del plata,-38.0023,-57.5575,18.62,86,100,3.6,AR,1733431584
454,tughyl,47.7252,84.2063,-5.77,89,74,2.74,KZ,1733431586
455,fengtai,39.5581,117.7492,-0.85,36,11,2.28,CN,1733431587
456,merowe,18.4833,31.8167,18.93,26,35,4.46,SD,1733431588
457,daru,-9.0763,143.2092,27.03,88,100,2.38,PG,1733431589
458,porto novo,6.4965,2.6036,28.9,77,57,2.91,BJ,1733431590
459,kayangel,8.0823,134.7173,28.33,80,71,5.32,PW,1733431591
460,piterka,50.6803,47.4454,-4.52,76,86,4.06,RU,1733431592
461,esquel,-42.9,-71.3167,8.54,84,100,3.05,AR,1733431593
462,yeppoon,-23.1333,150.7333,26.21,66,96,5.74,AU,1733431594
463,lazaro cardenas,17.9583,-102.2,28.16,68,39,3.4,MX,1733431595
464,simian,44.6142,22.7072,3.22,98,100,3.56,RO,1733431596
465,luena,-11.7833,19.9167,17.96,79,93,2.09,AO,1733431597
466,agat village,13.3886,144.6585,26.87,92,75,4.63,GU,1733431598
467,kencong,-8.2833,113.3667,24.8,88,100,1.5,ID,1733431599
468,holualoa,19.6228,-155.9522,25.86,61,0,3.09,US,1733431600
469,piacabucu,-10.4056,-36.4344,25.81,78,12,4.54,BR,1733431601
470,santiago de cao,-7.9589,-79.2392,18.07,88,83,4.63,PE,1733431602
471,riachao das neves,-11.7461,-44.91,26.73,52,52,1.12,BR,1733431603
472,jiangyou,31.7667,104.7167,7.11,81,42,0.55,CN,1733431604
473,saratoga,43.1001,-73.8496,1.83,77,100,2.68,US,1733431605
474,hami,42.8,93.45,-3.8,71,0,2.06,CN,1733431606
475,formosa,-26.1775,-58.1781,32.99,66,75,5.14,AR,1733431607
476,bubaque,11.2833,-15.8333,29.07,50,99,7.84,GW,1733431608
477,coyhaique,-45.5752,-72.0662,5.95,99,100,1.31,CL,1733431609
478,happy valley-goose bay,53.3168,-60.3315,-12.83,78,75,2.06,CA,1733431611
479,yarmouth,41.7057,-70.2286,4.44,84,100,7.6,US,1733431612
480,sheboygan,43.7333,-87.9334,-1.49,63,100,7.72,US,1733431613
481,salina cruz,16.1667,-95.2,31.29,40,18,9.73,MX,1733431615
482,garachico,28.7781,-17.7646,18.06,77,20,3.6,ES,1733431495
483,chibougamau,49.9168,-74.3659,-5.21,93,100,3.09,CA,1733431617
484,el quebrachal,-25.2833,-64.0667,33.93,34,93,6.55,AR,1733431618
485,lakatoro,-16.0999,167.4164,27.56,81,100,5.09,VU,1733431619
486,singaraja,-8.112,115.0882,26.57,90,100,2.29,ID,1733431620
487,hilo,19.7297,-155.09,26.73,77,100,3.6,US,1733431351
488,chonchi,-42.6128,-73.8092,15.62,88,100,3.46,CL,1733431622
489,barcelos,41.5388,-8.6151,13.91,92,93,0.89,PT,1733431623
490,pacific grove,36.6177,-121.9166,20.76,67,0,2.57,US,1733431624
491,spanish springs,39.6491,-119.7074,12.88,39,0,0.0,US,1733431625
492,belmonte,-15.8631,-38.8828,25.11,77,100,3.15,BR,1733431626
493,mount pearl,47.5166,-52.7813,1.64,77,75,3.09,CA,1733431627
494,gulf shores,30.246,-87.7008,15.57,78,100,3.09,US,1733431628
495,bambanglipuro,-7.95,110.2833,24.67,89,100,1.83,ID,1733431629
496,villamontes,-21.25,-63.5,33.69,40,40,2.57,BO,1733431630
497,kone,-21.0595,164.8658,28.61,59,15,1.61,NC,1733431632
498,buulobarde,3.8538,45.5674,24.02,78,4,5.28,SO,1733431633
499,boldumsaz,42.1282,59.671,-0.77,63,2,2.28,TM,1733431634
500,kish,26.5578,54.0194,21.15,73,0,0.0,IR,1733431635
501,east end,34.5507,-92.341,7.92,28,27,0.89,US,1733431636
502,bodaybo,57.8506,114.1933,-32.6,100,72,0.99,RU,1733431637
503,buka,40.8108,69.1986,4.12,69,10,1.25,UZ,1733431638
504,el charco,2.4769,-78.1105,27.16,79,85,3.59,CO,1733431639
505,west freehold,40.2421,-74.3013,2.6,57,20,8.75,US,1733431640
506,usinsk,65.9939,57.5281,-6.92,88,100,7.63,RU,1733431452
507,horsham,51.064,-0.3272,12.25,86,40,8.75,GB,1733431642
508,hotan,37.0997,79.9269,-1.52,45,8,0.77,CN,1733431643
509,hauterive,46.0901,3.4459,8.3,68,100,4.91,FR,1733431644
510,guantanamo,20.1444,-75.2092,27.76,80,100,2.88,CU,1733431645
511,dolores,-36.3132,-57.6792,24.98,47,90,7.53,AR,1733431646
512,christchurch,-43.5333,172.6333,16.29,67,100,6.17,NZ,1733431647
513,chardara,41.2547,67.9692,3.49,67,3,3.24,KZ,1733431648
514,qarah zia' od din,38.8915,45.0255,1.48,65,48,0.31,IR,1733431649
515,opuwo,-18.0607,13.84,20.21,37,4,3.86,NA,1733431650
516,namanga,-2.5433,36.7905,19.94,72,64,2.31,KE,1733431651
517,novodvinsk,64.4165,40.8122,-10.14,81,94,4.33,RU,1733431652
518,harlingen,26.1906,-97.6961,22.19,84,100,4.63,US,1733431653
519,hassi messaoud,31.6804,6.0729,12.92,47,1,2.06,DZ,1733431655
520,conceicao do araguaia,-8.2578,-49.2647,25.07,87,100,1.54,BR,1733431656
521,qamdo,31.1667,97.2333,-5.1,50,0,0.88,CN,1733431657
522,yuanping,38.7153,112.7575,-2.91,56,4,1.08,CN,1733431658
523,isangel,-19.55,169.2667,27.21,78,43,3.0,VU,1733431659
524,bageshwar,29.85,79.7667,9.58,41,0,1.4,IN,1733431660
525,coari,-4.085,-63.1414,32.32,53,99,1.02,BR,1733431661
526,ghat,24.9647,10.1728,13.74,54,0,7.59,LY,1733431662
527,aswan,24.0934,32.907,17.61,42,0,2.57,EG,1733431663
528,bandarbeyla,9.4942,50.8122,25.03,76,17,8.94,SO,1733431664
529,plettenberg bay,-34.0527,23.3716,17.37,81,100,3.56,ZA,1733431665
530,gebeit,21.0667,36.3167,16.44,78,18,2.75,SD,1733431666
531,papao,-17.75,-149.55,28.82,72,100,8.23,PF,1733431667
532,karoi,-16.8099,29.6925,23.19,38,13,1.95,ZW,1733431668
533,adam,22.3756,57.5233,20.83,45,94,2.02,OM,1733431669
534,adiake,5.2863,-3.304,26.7,80,58,2.82,CI,1733431670
535,labytnangi,66.6572,66.4183,-13.12,93,100,3.27,RU,1733431671
536,ancud,-41.8697,-73.8203,13.14,75,90,5.68,CL,1733431672
537,buena vista,43.4203,-83.8986,-1.9,64,100,10.8,US,1733431673
538,ilebo,-4.3167,20.5833,20.89,99,90,0.51,CD,1733431674
539,auki,-8.7676,160.7034,25.91,88,100,2.09,SB,1733431675
540,sinop,41.7711,34.8709,4.3,91,87,2.36,TR,1733431676
541,twentynine palms,34.1356,-116.0542,24.18,14,0,5.56,US,1733431678
542,port moresby,-9.4431,147.1797,24.68,94,40,1.54,PG,1733431503
543,ziro,27.6333,93.8333,3.29,92,0,0.65,IN,1733431680
544,miri,4.4148,114.0089,24.08,94,40,0.0,MY,1733431681
545,sylvan lake,52.3168,-114.0853,2.97,75,0,1.54,CA,1733431682
546,novo aripuana,-5.1206,-60.3797,27.53,75,92,1.04,BR,1733431683
547,tadine,-21.55,167.8833,25.89,73,65,4.67,NC,1733431488
548,poltavka,54.3663,71.7632,-10.19,96,89,3.28,RU,1733431685
549,sidon,33.5631,35.3689,16.29,54,0,3.24,LB,1733431686
550,queenstown,-31.8976,26.8753,14.95,83,82,1.92,ZA,1733431687
551,cuorgne,45.3895,7.6499,3.15,80,66,1.75,IT,1733431688
552,gurupi,-11.7292,-49.0686,25.9,84,83,0.99,BR,1733431690
553,caburan,5.9181,125.6411,25.07,77,96,0.75,PH,1733431691
554,nemuro,43.3236,145.575,-0.45,59,17,2.74,JP,1733431692
555,tshabong,-26.05,22.45,24.82,20,63,4.71,BW,1733431693
556,rabaul,-4.1967,152.1721,27.0,77,100,1.54,PG,1733431694
557,gokwe,-18.2048,28.9349,26.14,21,63,2.27,ZW,1733431695
558,augusto correa,-1.0217,-46.635,26.19,80,100,2.5,BR,1733431696
559,puerto plata,19.7934,-70.6884,27.91,74,40,4.12,DO,1733431697
560,astrakhan,46.3497,48.0408,-1.07,86,100,4.0,RU,1733431698
561,lospalos,-8.5186,127.0025,22.68,97,100,1.91,TL,1733431699
562,acapulco de juarez,16.8634,-99.8901,25.62,65,7,2.35,MX,1733431700
563,madalena,41.2162,-8.3345,14.32,97,99,0.4,PT,1733431701
564,mizque,-17.941,-65.3402,25.77,46,100,5.44,BO,1733431703
565,prado,-17.3411,-39.2208,24.87,81,23,4.04,BR,1733431704
566,songling,31.1933,120.7176,9.1,65,100,1.77,CN,1733431707
567,khilok,51.3674,110.4676,-22.12,100,100,0.79,RU,1733431708
568,manali,13.1667,80.2667,27.05,95,1,2.38,IN,1733431709
569,alibag,18.6411,72.8792,27.06,78,66,3.21,IN,1733431711
570,kingsbridge,50.2845,-3.7764,9.78,70,66,12.95,GB,1733431712
571,tanumah,27.1,44.1333,16.02,62,69,5.52,SA,1733431713
572,san ramon de la nueva oran,-23.1322,-64.326,31.35,34,19,3.52,AR,1733431714
573,cold lake,54.4502,-110.2017,-3.03,86,75,1.54,CA,1733431662
574,kill devil hills,36.0307,-75.676,11.01,43,40,4.63,US,1733431717
575,darwin,-12.4611,130.8418,25.5,93,100,2.57,AU,1733431503
576,somotillo,13.0433,-86.9064,28.8,67,37,3.46,NI,1733431719
577,rajin,42.2489,130.3003,-4.67,45,3,7.37,KP,1733431720
578,mazagao,-0.115,-51.2894,23.17,98,100,2.23,BR,1733431721
579,ingeniero jacobacci,-41.3427,-69.5448,14.68,33,100,8.39,AR,1733431722
580,suva,-18.1416,178.4415,27.71,89,75,1.03,FJ,1733431723
581,wotje,9.4543,170.2367,27.96,85,99,10.03,MH,1733431724
582,kerikeri,-35.2268,173.9474,23.28,62,0,3.58,NZ,1733431426
583,namsos,64.4662,11.4957,1.95,60,0,6.17,NO,1733431726
584,vetluzhskiy,58.3902,45.4654,-9.01,99,76,0.78,RU,1733431727
585,aykhal,66.0,111.5,-13.76,94,100,7.81,RU,1733431728
586,pinsk,52.1229,26.0951,-2.35,90,100,3.81,BY,1733431636
587,novaya ladoga,60.1025,32.3019,-2.33,60,100,6.11,RU,1733431730
588,holbrook,40.8123,-73.0784,3.95,56,75,7.72,US,1733431731
589,sao vicente,-23.9631,-46.3919,25.55,33,40,1.54,BR,1733431601
590,camana,-16.6228,-72.7111,20.92,79,46,4.0,PE,1733431733
